{
"type": "FeatureCollection",
"crs": { "type": "name", "properties": { "name": "urn:ogc:def:crs:OGC:1.3:CRS84" } },
"features": [
{ "type": "Feature", "properties": { "NOMBRE_MERCADO": "MERCADO BELLAVISTA                                                                                  ", "aforo": 11042.0, "aforo_scaled": 10.22036528876693, "latitude": -12.062256, "longitude": -77.096491, "distrito": "Bellavista" }, "geometry": { "type": "Point", "coordinates": [ -77.096491, -12.062256 ] } },
{ "type": "Feature", "properties": { "NOMBRE_MERCADO": "MERCADO LOS CONDORES                                                                                ", "aforo": 766.0, "aforo_scaled": 10.014840356168548, "latitude": -12.056297, "longitude": -77.09618, "distrito": "Bellavista" }, "geometry": { "type": "Point", "coordinates": [ -77.09618, -12.056297 ] } },
{ "type": "Feature", "properties": { "NOMBRE_MERCADO": "CAMPO FERIAL LAS GEMELAS                                                                            ", "aforo": 300.0, "aforo_scaled": 10.005520132483179, "latitude": -12.06664, "longitude": -77.129078, "distrito": "Bellavista" }, "geometry": { "type": "Point", "coordinates": [ -77.129078, -12.06664 ] } },
{ "type": "Feature", "properties": { "NOMBRE_MERCADO": "MERCADO ACEFEB                                                                                      ", "aforo": 700.0, "aforo_scaled": 10.013520324487788, "latitude": -12.066671, "longitude": -77.128888, "distrito": "Bellavista" }, "geometry": { "type": "Point", "coordinates": [ -77.128888, -12.066671 ] } },
{ "type": "Feature", "properties": { "NOMBRE_MERCADO": "MERCADO 20 DE ABRIL                                                                                 ", "aforo": 600.0, "aforo_scaled": 10.011520276486635, "latitude": -12.066521, "longitude": -77.128635, "distrito": "Bellavista" }, "geometry": { "type": "Point", "coordinates": [ -77.128635, -12.066521 ] } },
{ "type": "Feature", "properties": { "NOMBRE_MERCADO": "MERCADO NIÑO JESUS                                                                                  ", "aforo": 1200.0, "aforo_scaled": 10.023520564493548, "latitude": -12.066265, "longitude": -77.129483, "distrito": "Bellavista" }, "geometry": { "type": "Point", "coordinates": [ -77.129483, -12.066265 ] } },
{ "type": "Feature", "properties": { "NOMBRE_MERCADO": "MERCADO LA COLONIAL                                                                                 ", "aforo": 6400.0, "aforo_scaled": 10.127523060553454, "latitude": -12.057311, "longitude": -77.09748, "distrito": "Bellavista" }, "geometry": { "type": "Point", "coordinates": [ -77.09748, -12.057311 ] } },
{ "type": "Feature", "properties": { "NOMBRE_MERCADO": "MERCADO EL PACIFICO                                                                                 ", "aforo": 8000.0, "aforo_scaled": 10.159523828571885, "latitude": -12.056108, "longitude": -77.109566, "distrito": "Bellavista" }, "geometry": { "type": "Point", "coordinates": [ -77.109566, -12.056108 ] } },
{ "type": "Feature", "properties": { "NOMBRE_MERCADO": "MERCADO SAN PEDRO                                                                                   ", "aforo": 22000.0, "aforo_scaled": 10.43953054873317, "latitude": -12.059087, "longitude": -77.107326, "distrito": "Bellavista" }, "geometry": { "type": "Point", "coordinates": [ -77.107326, -12.059087 ] } },
{ "type": "Feature", "properties": { "NOMBRE_MERCADO": "MERCADO MADRE DEL BELLO AMOR                                                                        ", "aforo": 1424.0, "aforo_scaled": 10.028000672016129, "latitude": -12.062605, "longitude": -77.112404, "distrito": "Bellavista" }, "geometry": { "type": "Point", "coordinates": [ -77.112404, -12.062605 ] } },
{ "type": "Feature", "properties": { "NOMBRE_MERCADO": "MERCADO JOSE OLAYA                                                                                  ", "aforo": 9200.0, "aforo_scaled": 10.183524404585711, "latitude": -12.059131, "longitude": -77.105235, "distrito": "Bellavista" }, "geometry": { "type": "Point", "coordinates": [ -77.105235, -12.059131 ] } },
{ "type": "Feature", "properties": { "NOMBRE_MERCADO": "MERCADO DE ABASTO MUNICIPAL                                                                         ", "aforo": 3600.0, "aforo_scaled": 10.071521716521197, "latitude": -12.065594, "longitude": -77.128233, "distrito": "Bellavista" }, "geometry": { "type": "Point", "coordinates": [ -77.128233, -12.065594 ] } },
{ "type": "Feature", "properties": { "NOMBRE_MERCADO": " SUPERMERCADO LOS ANGELES DE OQUENDO                                                                ", "aforo": 1400.0, "aforo_scaled": 10.027520660495853, "latitude": -11.970784, "longitude": -77.12181, "distrito": "Callao" }, "geometry": { "type": "Point", "coordinates": [ -77.12181, -11.970784 ] } },
{ "type": "Feature", "properties": { "NOMBRE_MERCADO": "MERCADO OQUENDO                                                                                     ", "aforo": 560.0, "aforo_scaled": 10.010720257286176, "latitude": -11.972385, "longitude": -77.124577, "distrito": "Callao" }, "geometry": { "type": "Point", "coordinates": [ -77.124577, -11.972385 ] } },
{ "type": "Feature", "properties": { "NOMBRE_MERCADO": "2 DE JULIO                                                                                          ", "aforo": 990.0, "aforo_scaled": 10.019320463691129, "latitude": -12.061875, "longitude": -77.141647, "distrito": "Callao" }, "geometry": { "type": "Point", "coordinates": [ -77.141647, -12.061875 ] } },
{ "type": "Feature", "properties": { "NOMBRE_MERCADO": "BOCANEGRA                                                                                           ", "aforo": 7000.0, "aforo_scaled": 10.139523348560365, "latitude": -12.023989, "longitude": -77.093536, "distrito": "Callao" }, "geometry": { "type": "Point", "coordinates": [ -77.093536, -12.023989 ] } },
{ "type": "Feature", "properties": { "NOMBRE_MERCADO": "MERCADO TERMINAL PESQUERO                                                                           ", "aforo": 50000.0, "aforo_scaled": 10.999543989055738, "latitude": -11.989245, "longitude": -77.125744, "distrito": "Callao" }, "geometry": { "type": "Point", "coordinates": [ -77.125744, -11.989245 ] } },
{ "type": "Feature", "properties": { "NOMBRE_MERCADO": "MERCADO ROJA                                                                                        ", "aforo": 9222.0, "aforo_scaled": 10.183964415145963, "latitude": -12.042822, "longitude": -77.115243, "distrito": "Callao" }, "geometry": { "type": "Point", "coordinates": [ -77.115243, -12.042822 ] } },
{ "type": "Feature", "properties": { "NOMBRE_MERCADO": "COOPERATIVA PLAYA RIMAC                                                                             ", "aforo": 5600.0, "aforo_scaled": 10.111522676544237, "latitude": -12.036839, "longitude": -77.0958, "distrito": "Callao" }, "geometry": { "type": "Point", "coordinates": [ -77.0958, -12.036839 ] } },
{ "type": "Feature", "properties": { "NOMBRE_MERCADO": "MERCADO DE SERVICIOS ESPECIALES REPUBLICA DE VENEZUELA                                              ", "aforo": 2000.0, "aforo_scaled": 10.039520948502764, "latitude": -12.058443, "longitude": -77.141966, "distrito": "Callao" }, "geometry": { "type": "Point", "coordinates": [ -77.141966, -12.058443 ] } },
{ "type": "Feature", "properties": { "NOMBRE_MERCADO": "MERCADO FUNDO LA CHALACA                                                                            ", "aforo": 300.0, "aforo_scaled": 10.005520132483179, "latitude": -12.057544, "longitude": -77.128546, "distrito": "Callao" }, "geometry": { "type": "Point", "coordinates": [ -77.128546, -12.057544 ] } },
{ "type": "Feature", "properties": { "NOMBRE_MERCADO": "EL METRITO                                                                                          ", "aforo": 200.0, "aforo_scaled": 10.003520084482028, "latitude": -12.006758, "longitude": -77.100455, "distrito": "Callao" }, "geometry": { "type": "Point", "coordinates": [ -77.100455, -12.006758 ] } },
{ "type": "Feature", "properties": { "NOMBRE_MERCADO": "MERCADO PACIFICO                                                                                    ", "aforo": 400.0, "aforo_scaled": 10.007520180484331, "latitude": -12.057217, "longitude": -77.132776, "distrito": "Callao" }, "geometry": { "type": "Point", "coordinates": [ -77.132776, -12.057217 ] } },
{ "type": "Feature", "properties": { "NOMBRE_MERCADO": "MERCADO LOS ANGELES                                                                                 ", "aforo": 320.0, "aforo_scaled": 10.00592014208341, "latitude": -11.995803, "longitude": -77.117674, "distrito": "Callao" }, "geometry": { "type": "Point", "coordinates": [ -77.117674, -11.995803 ] } },
{ "type": "Feature", "properties": { "NOMBRE_MERCADO": "PROYECTO 2002                                                                                       ", "aforo": 1800.0, "aforo_scaled": 10.03552085250046, "latitude": -12.009605, "longitude": -77.095801, "distrito": "Callao" }, "geometry": { "type": "Point", "coordinates": [ -77.095801, -12.009605 ] } },
{ "type": "Feature", "properties": { "NOMBRE_MERCADO": "MERCADO EL SALOOM DEL PESCADO                                                                       ", "aforo": 2000.0, "aforo_scaled": 10.039520948502764, "latitude": -12.061767, "longitude": -77.14047, "distrito": "Callao" }, "geometry": { "type": "Point", "coordinates": [ -77.14047, -12.061767 ] } },
{ "type": "Feature", "properties": { "NOMBRE_MERCADO": "MERCADO NUEVO NORTE                                                                                 ", "aforo": 600.0, "aforo_scaled": 10.011520276486635, "latitude": -11.97622, "longitude": -77.114925, "distrito": "Callao" }, "geometry": { "type": "Point", "coordinates": [ -77.114925, -11.97622 ] } },
{ "type": "Feature", "properties": { "NOMBRE_MERCADO": "MERCADO VIPOL                                                                                       ", "aforo": 1626.0, "aforo_scaled": 10.032040768978456, "latitude": -12.011466, "longitude": -77.097546, "distrito": "Callao" }, "geometry": { "type": "Point", "coordinates": [ -77.097546, -12.011466 ] } },
{ "type": "Feature", "properties": { "NOMBRE_MERCADO": "LA CHACRITA                                                                                         ", "aforo": 280.0, "aforo_scaled": 10.00512012288295, "latitude": -12.006276, "longitude": -77.100687, "distrito": "Callao" }, "geometry": { "type": "Point", "coordinates": [ -77.100687, -12.006276 ] } },
{ "type": "Feature", "properties": { "NOMBRE_MERCADO": "MERCADO JUAN PABLO SEGUNDO                                                                          ", "aforo": 144.0, "aforo_scaled": 10.002400057601383, "latitude": -12.025143, "longitude": -77.130322, "distrito": "Callao" }, "geometry": { "type": "Point", "coordinates": [ -77.130322, -12.025143 ] } },
{ "type": "Feature", "properties": { "NOMBRE_MERCADO": "MERCADO EL SEMBRADOR                                                                                ", "aforo": 900.0, "aforo_scaled": 10.017520420490092, "latitude": -11.975761, "longitude": -77.120716, "distrito": "Callao" }, "geometry": { "type": "Point", "coordinates": [ -77.120716, -11.975761 ] } },
{ "type": "Feature", "properties": { "NOMBRE_MERCADO": "MERCADO EL ALAMO                                                                                    ", "aforo": 5000.0, "aforo_scaled": 10.099522388537325, "latitude": -12.001609, "longitude": -77.107226, "distrito": "Callao" }, "geometry": { "type": "Point", "coordinates": [ -77.107226, -12.001609 ] } },
{ "type": "Feature", "properties": { "NOMBRE_MERCADO": "LA COLONIAL                                                                                         ", "aforo": 2196.0, "aforo_scaled": 10.043441042585021, "latitude": -12.051679, "longitude": -77.094142, "distrito": "Callao" }, "geometry": { "type": "Point", "coordinates": [ -77.094142, -12.051679 ] } },
{ "type": "Feature", "properties": { "NOMBRE_MERCADO": "MERCADO SAN IGNACIO DE LOYOLA                                                                       ", "aforo": 690.0, "aforo_scaled": 10.013320319687672, "latitude": -11.998246, "longitude": -77.117998, "distrito": "Callao" }, "geometry": { "type": "Point", "coordinates": [ -77.117998, -11.998246 ] } },
{ "type": "Feature", "properties": { "NOMBRE_MERCADO": "MERCADO MAISHELL                                                                                    ", "aforo": 200.0, "aforo_scaled": 10.003520084482028, "latitude": -11.99706, "longitude": -77.117117, "distrito": "Callao" }, "geometry": { "type": "Point", "coordinates": [ -77.117117, -11.99706 ] } },
{ "type": "Feature", "properties": { "NOMBRE_MERCADO": "CENTRO COMERCIAL SANTA ROSA DE LIMA                                                                 ", "aforo": 400.0, "aforo_scaled": 10.007520180484331, "latitude": -12.00846, "longitude": -77.103347, "distrito": "Callao" }, "geometry": { "type": "Point", "coordinates": [ -77.103347, -12.00846 ] } },
{ "type": "Feature", "properties": { "NOMBRE_MERCADO": "MERCADO LOS OLIVOS DE SANTA ROSA                                                                    ", "aforo": 1300.0, "aforo_scaled": 10.025520612494701, "latitude": -11.99731, "longitude": -77.110267, "distrito": "Callao" }, "geometry": { "type": "Point", "coordinates": [ -77.110267, -11.99731 ] } },
{ "type": "Feature", "properties": { "NOMBRE_MERCADO": "SEÑOR DE LA MISERICORDIA                                                                            ", "aforo": 600.0, "aforo_scaled": 10.011520276486635, "latitude": -12.050546, "longitude": -77.134836, "distrito": "Callao" }, "geometry": { "type": "Point", "coordinates": [ -77.134836, -12.050546 ] } },
{ "type": "Feature", "properties": { "NOMBRE_MERCADO": "MERCADO ANCASH                                                                                      ", "aforo": 1710.0, "aforo_scaled": 10.033720809299423, "latitude": -12.065727, "longitude": -77.138341, "distrito": "Callao" }, "geometry": { "type": "Point", "coordinates": [ -77.138341, -12.065727 ] } },
{ "type": "Feature", "properties": { "NOMBRE_MERCADO": "MERCADO EL REY                                                                                      ", "aforo": 3200.0, "aforo_scaled": 10.063521524516588, "latitude": -12.062629, "longitude": -77.138992, "distrito": "Callao" }, "geometry": { "type": "Point", "coordinates": [ -77.138992, -12.062629 ] } },
{ "type": "Feature", "properties": { "NOMBRE_MERCADO": "MERCADO LA COLONIAL                                                                                 ", "aforo": 1600.0, "aforo_scaled": 10.031520756498155, "latitude": -12.052873, "longitude": -77.095613, "distrito": "Callao" }, "geometry": { "type": "Point", "coordinates": [ -77.095613, -12.052873 ] } },
{ "type": "Feature", "properties": { "NOMBRE_MERCADO": "MERCADO COMERCIANTES UNIDOS SANTA MARINA                                                            ", "aforo": 360.0, "aforo_scaled": 10.006720161283871, "latitude": -12.055856, "longitude": -77.129375, "distrito": "Callao" }, "geometry": { "type": "Point", "coordinates": [ -77.129375, -12.055856 ] } },
{ "type": "Feature", "properties": { "NOMBRE_MERCADO": "MERCADO EL CONDOR                                                                                   ", "aforo": 608.0, "aforo_scaled": 10.011680280326727, "latitude": -12.012544, "longitude": -77.092228, "distrito": "Callao" }, "geometry": { "type": "Point", "coordinates": [ -77.092228, -12.012544 ] } },
{ "type": "Feature", "properties": { "NOMBRE_MERCADO": "MERCADO MODERNO UNION CHACHAPOYAS                                                                   ", "aforo": 1148.0, "aforo_scaled": 10.022480539532948, "latitude": -12.055892, "longitude": -77.129521, "distrito": "Callao" }, "geometry": { "type": "Point", "coordinates": [ -77.129521, -12.055892 ] } },
{ "type": "Feature", "properties": { "NOMBRE_MERCADO": "SAN MARTIN DE PORRES DE LAS COLINAS                                                                 ", "aforo": 480.0, "aforo_scaled": 10.009120218885252, "latitude": -12.003539, "longitude": -77.101727, "distrito": "Callao" }, "geometry": { "type": "Point", "coordinates": [ -77.101727, -12.003539 ] } },
{ "type": "Feature", "properties": { "NOMBRE_MERCADO": "SAN RAFAEL                                                                                          ", "aforo": 1780.0, "aforo_scaled": 10.035120842900229, "latitude": -12.051688, "longitude": -77.135003, "distrito": "Callao" }, "geometry": { "type": "Point", "coordinates": [ -77.135003, -12.051688 ] } },
{ "type": "Feature", "properties": { "NOMBRE_MERCADO": "MERCADO VIRGEN DE LA CARIDAD                                                                        ", "aforo": 600.0, "aforo_scaled": 10.011520276486635, "latitude": -12.001607, "longitude": -77.113462, "distrito": "Callao" }, "geometry": { "type": "Point", "coordinates": [ -77.113462, -12.001607 ] } },
{ "type": "Feature", "properties": { "NOMBRE_MERCADO": "MERCADO VIRGEN DEL CARMEN                                                                           ", "aforo": 3000.0, "aforo_scaled": 10.059521428514284, "latitude": -12.006756, "longitude": -77.099672, "distrito": "Callao" }, "geometry": { "type": "Point", "coordinates": [ -77.099672, -12.006756 ] } },
{ "type": "Feature", "properties": { "NOMBRE_MERCADO": "5 DE JUNIO                                                                                          ", "aforo": 600.0, "aforo_scaled": 10.011520276486635, "latitude": -12.016126, "longitude": -77.093122, "distrito": "Callao" }, "geometry": { "type": "Point", "coordinates": [ -77.093122, -12.016126 ] } },
{ "type": "Feature", "properties": { "NOMBRE_MERCADO": "MERCADO LA CHALACA                                                                                  ", "aforo": 740.0, "aforo_scaled": 10.014320343688249, "latitude": -12.048835, "longitude": -77.130428, "distrito": "Callao" }, "geometry": { "type": "Point", "coordinates": [ -77.130428, -12.048835 ] } },
{ "type": "Feature", "properties": { "NOMBRE_MERCADO": "27 DE SETIEMBRE                                                                                     ", "aforo": 400.0, "aforo_scaled": 10.007520180484331, "latitude": -12.018153, "longitude": -77.099853, "distrito": "Callao" }, "geometry": { "type": "Point", "coordinates": [ -77.099853, -12.018153 ] } },
{ "type": "Feature", "properties": { "NOMBRE_MERCADO": "ASOC. DE COM. SAN MARTIN DE PORRES                                                                  ", "aforo": 320.0, "aforo_scaled": 10.00592014208341, "latitude": -12.050537, "longitude": -77.134802, "distrito": "Callao" }, "geometry": { "type": "Point", "coordinates": [ -77.134802, -12.050537 ] } },
{ "type": "Feature", "properties": { "NOMBRE_MERCADO": "MERCADO AGUA SANTA                                                                                  ", "aforo": 596.0, "aforo_scaled": 10.01144027456659, "latitude": -12.052138, "longitude": -77.100694, "distrito": "Callao" }, "geometry": { "type": "Point", "coordinates": [ -77.100694, -12.052138 ] } },
{ "type": "Feature", "properties": { "NOMBRE_MERCADO": "MERCADO SANTA ROSA DE LIMA                                                                          ", "aforo": 400.0, "aforo_scaled": 10.007520180484331, "latitude": -12.010652, "longitude": -77.10032, "distrito": "Callao" }, "geometry": { "type": "Point", "coordinates": [ -77.10032, -12.010652 ] } },
{ "type": "Feature", "properties": { "NOMBRE_MERCADO": "MERCADO INMACULADA CONCEPCION                                                                       ", "aforo": 5580.0, "aforo_scaled": 10.111122666944008, "latitude": -12.021323, "longitude": -77.138001, "distrito": "Callao" }, "geometry": { "type": "Point", "coordinates": [ -77.138001, -12.021323 ] } },
{ "type": "Feature", "properties": { "NOMBRE_MERCADO": "MERCADO SANTA ROSITA                                                                                ", "aforo": 800.0, "aforo_scaled": 10.01552037248894, "latitude": -12.018302, "longitude": -77.100112, "distrito": "Callao" }, "geometry": { "type": "Point", "coordinates": [ -77.100112, -12.018302 ] } },
{ "type": "Feature", "properties": { "NOMBRE_MERCADO": "MERCADO TAMBO MACHAY                                                                                ", "aforo": 320.0, "aforo_scaled": 10.00592014208341, "latitude": -11.997076, "longitude": -77.117187, "distrito": "Callao" }, "geometry": { "type": "Point", "coordinates": [ -77.117187, -11.997076 ] } },
{ "type": "Feature", "properties": { "NOMBRE_MERCADO": "MERCADO 11 DE ABRIL                                                                                 ", "aforo": 400.0, "aforo_scaled": 10.007520180484331, "latitude": -12.052883, "longitude": -77.109057, "distrito": "Callao" }, "geometry": { "type": "Point", "coordinates": [ -77.109057, -12.052883 ] } },
{ "type": "Feature", "properties": { "NOMBRE_MERCADO": "VIRGEN DEL CARMEN                                                                                   ", "aforo": 476.0, "aforo_scaled": 10.009040216965207, "latitude": -12.054581, "longitude": -77.124909, "distrito": "Callao" }, "geometry": { "type": "Point", "coordinates": [ -77.124909, -12.054581 ] } },
{ "type": "Feature", "properties": { "NOMBRE_MERCADO": "MERCADO SAN JUAN MASIAS                                                                             ", "aforo": 800.0, "aforo_scaled": 10.01552037248894, "latitude": -11.998722, "longitude": -77.118262, "distrito": "Callao" }, "geometry": { "type": "Point", "coordinates": [ -77.118262, -11.998722 ] } },
{ "type": "Feature", "properties": { "NOMBRE_MERCADO": "SAN JORGE                                                                                           ", "aforo": 800.0, "aforo_scaled": 10.01552037248894, "latitude": -12.006581, "longitude": -77.106201, "distrito": "Callao" }, "geometry": { "type": "Point", "coordinates": [ -77.106201, -12.006581 ] } },
{ "type": "Feature", "properties": { "NOMBRE_MERCADO": "EL OLIVAR                                                                                           ", "aforo": 5360.0, "aforo_scaled": 10.106722561341472, "latitude": -12.02682, "longitude": -77.099934, "distrito": "Callao" }, "geometry": { "type": "Point", "coordinates": [ -77.099934, -12.02682 ] } },
{ "type": "Feature", "properties": { "NOMBRE_MERCADO": "MERCADO PLAZA DE BARRIO                                                                             ", "aforo": 2400.0, "aforo_scaled": 10.047521140507373, "latitude": -12.022723, "longitude": -77.100585, "distrito": "Callao" }, "geometry": { "type": "Point", "coordinates": [ -77.100585, -12.022723 ] } },
{ "type": "Feature", "properties": { "NOMBRE_MERCADO": "MERCADO MODELO LAS 200 MILLAS                                                                       ", "aforo": 5000.0, "aforo_scaled": 10.099522388537325, "latitude": -11.99777, "longitude": -77.123761, "distrito": "Callao" }, "geometry": { "type": "Point", "coordinates": [ -77.123761, -11.99777 ] } },
{ "type": "Feature", "properties": { "NOMBRE_MERCADO": "MERCADO SAN JUAN BAUTISTA                                                                           ", "aforo": 2890.0, "aforo_scaled": 10.057321375713018, "latitude": -11.941482, "longitude": -77.133879, "distrito": "Callao" }, "geometry": { "type": "Point", "coordinates": [ -77.133879, -11.941482 ] } },
{ "type": "Feature", "properties": { "NOMBRE_MERCADO": "MERCADO CIUDADELA CHALACA                                                                           ", "aforo": 1400.0, "aforo_scaled": 10.027520660495853, "latitude": -12.057103, "longitude": -77.132716, "distrito": "Callao" }, "geometry": { "type": "Point", "coordinates": [ -77.132716, -12.057103 ] } },
{ "type": "Feature", "properties": { "NOMBRE_MERCADO": "MERCADO SANTA ROSA                                                                                  ", "aforo": 30000.0, "aforo_scaled": 10.599534388825331, "latitude": -12.018363, "longitude": -77.100895, "distrito": "Callao" }, "geometry": { "type": "Point", "coordinates": [ -77.100895, -12.018363 ] } },
{ "type": "Feature", "properties": { "NOMBRE_MERCADO": "MERCADO SEÑOR CAUTIVO DE AYABACA                                                                    ", "aforo": 9526.0, "aforo_scaled": 10.190044561069465, "latitude": -12.023071, "longitude": -77.133846, "distrito": "Callao" }, "geometry": { "type": "Point", "coordinates": [ -77.133846, -12.023071 ] } },
{ "type": "Feature", "properties": { "NOMBRE_MERCADO": "MERCADO CRUZ DE MOTUPE                                                                              ", "aforo": 500.0, "aforo_scaled": 10.009520228485483, "latitude": -12.050556, "longitude": -77.134671, "distrito": "Callao" }, "geometry": { "type": "Point", "coordinates": [ -77.134671, -12.050556 ] } },
{ "type": "Feature", "properties": { "NOMBRE_MERCADO": "MERCADO SARITA COLONIA                                                                              ", "aforo": 2688.0, "aforo_scaled": 10.05328127875069, "latitude": -12.05256, "longitude": -77.121068, "distrito": "Callao" }, "geometry": { "type": "Point", "coordinates": [ -77.121068, -12.05256 ] } },
{ "type": "Feature", "properties": { "NOMBRE_MERCADO": "PRIMERO DE MAYO                                                                                     ", "aforo": 4518.0, "aforo_scaled": 10.089882157171772, "latitude": -12.017599, "longitude": -77.091672, "distrito": "Callao" }, "geometry": { "type": "Point", "coordinates": [ -77.091672, -12.017599 ] } },
{ "type": "Feature", "properties": { "NOMBRE_MERCADO": "3 DE ENERO                                                                                          ", "aforo": 12000.0, "aforo_scaled": 10.239525748617966, "latitude": -12.029775, "longitude": -77.09426, "distrito": "Callao" }, "geometry": { "type": "Point", "coordinates": [ -77.09426, -12.029775 ] } },
{ "type": "Feature", "properties": { "NOMBRE_MERCADO": "VIRGEN MARIA                                                                                        ", "aforo": 3200.0, "aforo_scaled": 10.063521524516588, "latitude": -12.043173, "longitude": -77.109008, "distrito": "Callao" }, "geometry": { "type": "Point", "coordinates": [ -77.109008, -12.043173 ] } },
{ "type": "Feature", "properties": { "NOMBRE_MERCADO": "MERCADO PARADITA COLONIAL                                                                           ", "aforo": 200.0, "aforo_scaled": 10.003520084482028, "latitude": -12.050772, "longitude": -77.096855, "distrito": "Callao" }, "geometry": { "type": "Point", "coordinates": [ -77.096855, -12.050772 ] } },
{ "type": "Feature", "properties": { "NOMBRE_MERCADO": "MERCADO AMARILLO                                                                                    ", "aforo": 5800.0, "aforo_scaled": 10.115522772546541, "latitude": -12.042484, "longitude": -77.118467, "distrito": "Callao" }, "geometry": { "type": "Point", "coordinates": [ -77.118467, -12.042484 ] } },
{ "type": "Feature", "properties": { "NOMBRE_MERCADO": "MERCADO SAN JORGE                                                                                   ", "aforo": 5600.0, "aforo_scaled": 10.111522676544237, "latitude": -12.043895, "longitude": -77.122157, "distrito": "Callao" }, "geometry": { "type": "Point", "coordinates": [ -77.122157, -12.043895 ] } },
{ "type": "Feature", "properties": { "NOMBRE_MERCADO": "MERCADO VIRGEN DE LAS MERCEDES                                                                      ", "aforo": 8400.0, "aforo_scaled": 10.167524020576494, "latitude": -11.941027, "longitude": -77.133244, "distrito": "Callao" }, "geometry": { "type": "Point", "coordinates": [ -77.133244, -11.941027 ] } },
{ "type": "Feature", "properties": { "NOMBRE_MERCADO": "MERCADO COOP. SETUC                                                                                 ", "aforo": 20000.0, "aforo_scaled": 10.399529588710129, "latitude": -12.056523, "longitude": -77.114398, "distrito": "Callao" }, "geometry": { "type": "Point", "coordinates": [ -77.114398, -12.056523 ] } },
{ "type": "Feature", "properties": { "NOMBRE_MERCADO": "MERCADO 2 DE MAYO                                                                                   ", "aforo": 1700.0, "aforo_scaled": 10.033520804499307, "latitude": -12.058029, "longitude": -77.142811, "distrito": "Callao" }, "geometry": { "type": "Point", "coordinates": [ -77.142811, -12.058029 ] } },
{ "type": "Feature", "properties": { "NOMBRE_MERCADO": "MERCADO VIRGEN DEL CARMEN                                                                           ", "aforo": 900.0, "aforo_scaled": 10.017520420490092, "latitude": -12.051687, "longitude": -77.099814, "distrito": "Callao" }, "geometry": { "type": "Point", "coordinates": [ -77.099814, -12.051687 ] } },
{ "type": "Feature", "properties": { "NOMBRE_MERCADO": "MERCADO CARRILLO ALBORNOZ                                                                           ", "aforo": 5300.0, "aforo_scaled": 10.105522532540782, "latitude": -12.066034, "longitude": -77.138309, "distrito": "Callao" }, "geometry": { "type": "Point", "coordinates": [ -77.138309, -12.066034 ] } },
{ "type": "Feature", "properties": { "NOMBRE_MERCADO": "MERCADO DE ABASTOS SANTA MARINA SUR                                                                 ", "aforo": 1200.0, "aforo_scaled": 10.023520564493548, "latitude": -12.055456, "longitude": -77.128085, "distrito": "Callao" }, "geometry": { "type": "Point", "coordinates": [ -77.128085, -12.055456 ] } },
{ "type": "Feature", "properties": { "NOMBRE_MERCADO": "MERCADO LORD COCKRANE                                                                               ", "aforo": 1400.0, "aforo_scaled": 10.027520660495853, "latitude": -12.06283, "longitude": -77.138121, "distrito": "Callao" }, "geometry": { "type": "Point", "coordinates": [ -77.138121, -12.06283 ] } },
{ "type": "Feature", "properties": { "NOMBRE_MERCADO": "MERCADO LA LIBERTAD                                                                                 ", "aforo": 3200.0, "aforo_scaled": 10.063521524516588, "latitude": -12.054023, "longitude": -77.136492, "distrito": "Callao" }, "geometry": { "type": "Point", "coordinates": [ -77.136492, -12.054023 ] } },
{ "type": "Feature", "properties": { "NOMBRE_MERCADO": "MERCADO CENTRAL DEL CALLAO                                                                          ", "aforo": 22000.0, "aforo_scaled": 10.43953054873317, "latitude": -12.060471, "longitude": -77.138494, "distrito": "Callao" }, "geometry": { "type": "Point", "coordinates": [ -77.138494, -12.060471 ] } },
{ "type": "Feature", "properties": { "NOMBRE_MERCADO": "MERCADO CHACARITA                                                                                   ", "aforo": 3100.0, "aforo_scaled": 10.061521476515436, "latitude": -12.054009, "longitude": -77.136416, "distrito": "Callao" }, "geometry": { "type": "Point", "coordinates": [ -77.136416, -12.054009 ] } },
{ "type": "Feature", "properties": { "NOMBRE_MERCADO": "MINIMERCADO DON BOSCO                                                                               ", "aforo": 200.0, "aforo_scaled": 10.003520084482028, "latitude": -12.054403, "longitude": -77.136885, "distrito": "Callao" }, "geometry": { "type": "Point", "coordinates": [ -77.136885, -12.054403 ] } },
{ "type": "Feature", "properties": { "NOMBRE_MERCADO": "MERCADO LA ALBORADA DE OQUENDO                                                                      ", "aforo": 1800.0, "aforo_scaled": 10.03552085250046, "latitude": -11.974131, "longitude": -77.115652, "distrito": "San Martin De Porres" }, "geometry": { "type": "Point", "coordinates": [ -77.115652, -11.974131 ] } },
{ "type": "Feature", "properties": { "NOMBRE_MERCADO": "MERCADO ROBLES DE SANTA ROSA                                                                        ", "aforo": 2100.0, "aforo_scaled": 10.041520996503916, "latitude": -11.996952, "longitude": -77.108379, "distrito": "San Martin De Porres" }, "geometry": { "type": "Point", "coordinates": [ -77.108379, -11.996952 ] } },
{ "type": "Feature", "properties": { "NOMBRE_MERCADO": "MI CASERITO                                                                                         ", "aforo": 240.0, "aforo_scaled": 10.004320103682488, "latitude": -11.982537, "longitude": -77.101432, "distrito": "San Martin De Porres" }, "geometry": { "type": "Point", "coordinates": [ -77.101432, -11.982537 ] } },
{ "type": "Feature", "properties": { "NOMBRE_MERCADO": "MERCADO EL CASERITO                                                                                 ", "aforo": 160.0, "aforo_scaled": 10.002720065281567, "latitude": -11.982537, "longitude": -77.101432, "distrito": "San Martin De Porres" }, "geometry": { "type": "Point", "coordinates": [ -77.101432, -11.982537 ] } },
{ "type": "Feature", "properties": { "NOMBRE_MERCADO": "MERCADO LOS ANGELES                                                                                 ", "aforo": 480.0, "aforo_scaled": 10.009120218885252, "latitude": -11.982537, "longitude": -77.101432, "distrito": "San Martin De Porres" }, "geometry": { "type": "Point", "coordinates": [ -77.101432, -11.982537 ] } },
{ "type": "Feature", "properties": { "NOMBRE_MERCADO": "MERCADO 8 DE DICIEMBRE                                                                              ", "aforo": 2400.0, "aforo_scaled": 10.047521140507373, "latitude": -11.948974, "longitude": -77.085749, "distrito": "San Martin De Porres" }, "geometry": { "type": "Point", "coordinates": [ -77.085749, -11.948974 ] } },
{ "type": "Feature", "properties": { "NOMBRE_MERCADO": "MERCADO CRUZ DE MOTUPE                                                                              ", "aforo": 7000.0, "aforo_scaled": 10.139523348560365, "latitude": -11.934782, "longitude": -77.084519, "distrito": "San Martin De Porres" }, "geometry": { "type": "Point", "coordinates": [ -77.084519, -11.934782 ] } },
{ "type": "Feature", "properties": { "NOMBRE_MERCADO": "MERCADO MODELO LOS PORTALES                                                                         ", "aforo": 14226.0, "aforo_scaled": 10.284046817123611, "latitude": -11.93478, "longitude": -77.084513, "distrito": "San Martin De Porres" }, "geometry": { "type": "Point", "coordinates": [ -77.084513, -11.93478 ] } },
{ "type": "Feature", "properties": { "NOMBRE_MERCADO": "MERCADO DE NARANJAL                                                                                 ", "aforo": 200.0, "aforo_scaled": 10.003520084482028, "latitude": -11.966872, "longitude": -77.089419, "distrito": "San Martin De Porres" }, "geometry": { "type": "Point", "coordinates": [ -77.089419, -11.966872 ] } },
{ "type": "Feature", "properties": { "NOMBRE_MERCADO": "MERCADO PARAMONGA                                                                                   ", "aforo": 800.0, "aforo_scaled": 10.01552037248894, "latitude": -11.964332, "longitude": -77.103003, "distrito": "San Martin De Porres" }, "geometry": { "type": "Point", "coordinates": [ -77.103003, -11.964332 ] } },
{ "type": "Feature", "properties": { "NOMBRE_MERCADO": "SAN PEDRO                                                                                           ", "aforo": 1450.0, "aforo_scaled": 10.028520684496428, "latitude": -11.990295, "longitude": -77.106373, "distrito": "San Martin De Porres" }, "geometry": { "type": "Point", "coordinates": [ -77.106373, -11.990295 ] } },
{ "type": "Feature", "properties": { "NOMBRE_MERCADO": "MERCADO VIRGEN DE FATIMA                                                                            ", "aforo": 1000.0, "aforo_scaled": 10.019520468491244, "latitude": -11.986901, "longitude": -77.087473, "distrito": "San Martin De Porres" }, "geometry": { "type": "Point", "coordinates": [ -77.087473, -11.986901 ] } },
{ "type": "Feature", "properties": { "NOMBRE_MERCADO": "MERCADO PUENTE CAMOTE                                                                               ", "aforo": 3000.0, "aforo_scaled": 10.059521428514284, "latitude": -11.989899, "longitude": -77.097592, "distrito": "San Martin De Porres" }, "geometry": { "type": "Point", "coordinates": [ -77.097592, -11.989899 ] } },
{ "type": "Feature", "properties": { "NOMBRE_MERCADO": "SANTA ROSA DE LAS AMERICAS LTDA                                                                     ", "aforo": 4200.0, "aforo_scaled": 10.083522004528108, "latitude": -12.032277, "longitude": -77.070202, "distrito": "San Martin De Porres" }, "geometry": { "type": "Point", "coordinates": [ -77.070202, -12.032277 ] } },
{ "type": "Feature", "properties": { "NOMBRE_MERCADO": "SAN ANTONIO                                                                                         ", "aforo": 1900.0, "aforo_scaled": 10.037520900501612, "latitude": -12.028916, "longitude": -77.085112, "distrito": "San Martin De Porres" }, "geometry": { "type": "Point", "coordinates": [ -77.085112, -12.028916 ] } },
{ "type": "Feature", "properties": { "NOMBRE_MERCADO": "CAMINO HACIA EL PROGRESO                                                                            ", "aforo": 440.0, "aforo_scaled": 10.008320199684793, "latitude": -12.031495, "longitude": -77.058214, "distrito": "San Martin De Porres" }, "geometry": { "type": "Point", "coordinates": [ -77.058214, -12.031495 ] } },
{ "type": "Feature", "properties": { "NOMBRE_MERCADO": "MERCADO JESUS NAZARENO                                                                              ", "aforo": 500.0, "aforo_scaled": 10.009520228485483, "latitude": -11.954092, "longitude": -77.09775, "distrito": "San Martin De Porres" }, "geometry": { "type": "Point", "coordinates": [ -77.09775, -11.954092 ] } },
{ "type": "Feature", "properties": { "NOMBRE_MERCADO": "MEGA MERCADO LOS PORTALES DE CHAVIN                                                                 ", "aforo": 1500.0, "aforo_scaled": 10.029520708497003, "latitude": -11.976052, "longitude": -77.09373, "distrito": "San Martin De Porres" }, "geometry": { "type": "Point", "coordinates": [ -77.09373, -11.976052 ] } },
{ "type": "Feature", "properties": { "NOMBRE_MERCADO": "EL PUENTE                                                                                           ", "aforo": 580.0, "aforo_scaled": 10.011120266886405, "latitude": -11.989927, "longitude": -77.097303, "distrito": "San Martin De Porres" }, "geometry": { "type": "Point", "coordinates": [ -77.097303, -11.989927 ] } },
{ "type": "Feature", "properties": { "NOMBRE_MERCADO": "CENTRO COMERCIAL IQUITOS                                                                            ", "aforo": 1200.0, "aforo_scaled": 10.023520564493548, "latitude": -12.029536, "longitude": -77.084898, "distrito": "San Martin De Porres" }, "geometry": { "type": "Point", "coordinates": [ -77.084898, -12.029536 ] } },
{ "type": "Feature", "properties": { "NOMBRE_MERCADO": "MERCADO DE TODOS                                                                                    ", "aforo": 500.0, "aforo_scaled": 10.009520228485483, "latitude": -12.030482, "longitude": -77.06505, "distrito": "San Martin De Porres" }, "geometry": { "type": "Point", "coordinates": [ -77.06505, -12.030482 ] } },
{ "type": "Feature", "properties": { "NOMBRE_MERCADO": "MERCADO SANTA ROSA                                                                                  ", "aforo": 200.0, "aforo_scaled": 10.003520084482028, "latitude": -11.985696, "longitude": -77.094335, "distrito": "San Martin De Porres" }, "geometry": { "type": "Point", "coordinates": [ -77.094335, -11.985696 ] } },
{ "type": "Feature", "properties": { "NOMBRE_MERCADO": "MERCADO DE VIPOL                                                                                    ", "aforo": 360.0, "aforo_scaled": 10.006720161283871, "latitude": -11.966422, "longitude": -77.089908, "distrito": "San Martin De Porres" }, "geometry": { "type": "Point", "coordinates": [ -77.089908, -11.966422 ] } },
{ "type": "Feature", "properties": { "NOMBRE_MERCADO": "MERCADO LOS NISPEROS                                                                                ", "aforo": 820.0, "aforo_scaled": 10.01592038208917, "latitude": -11.989981, "longitude": -77.096624, "distrito": "San Martin De Porres" }, "geometry": { "type": "Point", "coordinates": [ -77.096624, -11.989981 ] } },
{ "type": "Feature", "properties": { "NOMBRE_MERCADO": "CENTRO COMERCIAL SANTA ROSA DE LOS OLIVOS                                                           ", "aforo": 1360.0, "aforo_scaled": 10.026720641295391, "latitude": -11.9872, "longitude": -77.103587, "distrito": "San Martin De Porres" }, "geometry": { "type": "Point", "coordinates": [ -77.103587, -11.9872 ] } },
{ "type": "Feature", "properties": { "NOMBRE_MERCADO": "CENTRO COMERCIAL SEÑOR DE HUANCA                                                                    ", "aforo": 400.0, "aforo_scaled": 10.007520180484331, "latitude": -11.987457, "longitude": -77.11245, "distrito": "San Martin De Porres" }, "geometry": { "type": "Point", "coordinates": [ -77.11245, -11.987457 ] } },
{ "type": "Feature", "properties": { "NOMBRE_MERCADO": "SEÑOR JESUS                                                                                         ", "aforo": 180.0, "aforo_scaled": 10.003120074881798, "latitude": -12.031165, "longitude": -77.064498, "distrito": "San Martin De Porres" }, "geometry": { "type": "Point", "coordinates": [ -77.064498, -12.031165 ] } },
{ "type": "Feature", "properties": { "NOMBRE_MERCADO": "MERCADO MODELO GIMDAWASI                                                                            ", "aforo": 4000.0, "aforo_scaled": 10.079521908525805, "latitude": -11.968587, "longitude": -77.088946, "distrito": "San Martin De Porres" }, "geometry": { "type": "Point", "coordinates": [ -77.088946, -11.968587 ] } },
{ "type": "Feature", "properties": { "NOMBRE_MERCADO": "LAS MARGARITAS                                                                                      ", "aforo": 120.0, "aforo_scaled": 10.001920046081105, "latitude": -11.991351, "longitude": -77.092984, "distrito": "San Martin De Porres" }, "geometry": { "type": "Point", "coordinates": [ -77.092984, -11.991351 ] } },
{ "type": "Feature", "properties": { "NOMBRE_MERCADO": "MERCADO VIRGEN DE LA PUERTA                                                                         ", "aforo": 500.0, "aforo_scaled": 10.009520228485483, "latitude": -11.99318, "longitude": -77.111743, "distrito": "San Martin De Porres" }, "geometry": { "type": "Point", "coordinates": [ -77.111743, -11.99318 ] } },
{ "type": "Feature", "properties": { "NOMBRE_MERCADO": "MERCADO INKAMAY                                                                                     ", "aforo": 2400.0, "aforo_scaled": 10.047521140507373, "latitude": -11.963765, "longitude": -77.102347, "distrito": "San Martin De Porres" }, "geometry": { "type": "Point", "coordinates": [ -77.102347, -11.963765 ] } },
{ "type": "Feature", "properties": { "NOMBRE_MERCADO": "MERCADO VIPOL BATA                                                                                  ", "aforo": 504.0, "aforo_scaled": 10.00960023040553, "latitude": -11.966403, "longitude": -77.090227, "distrito": "San Martin De Porres" }, "geometry": { "type": "Point", "coordinates": [ -77.090227, -11.966403 ] } },
{ "type": "Feature", "properties": { "NOMBRE_MERCADO": "NUEVO HORIZONTE II                                                                                  ", "aforo": 5000.0, "aforo_scaled": 10.099522388537325, "latitude": -11.972826, "longitude": -77.102432, "distrito": "San Martin De Porres" }, "geometry": { "type": "Point", "coordinates": [ -77.102432, -11.972826 ] } },
{ "type": "Feature", "properties": { "NOMBRE_MERCADO": "MERCADO HORIZONTE                                                                                   ", "aforo": 9600.0, "aforo_scaled": 10.191524596590318, "latitude": -11.951878, "longitude": -77.09273, "distrito": "San Martin De Porres" }, "geometry": { "type": "Point", "coordinates": [ -77.09273, -11.951878 ] } },
{ "type": "Feature", "properties": { "NOMBRE_MERCADO": "MARGARITA                                                                                           ", "aforo": 100.0, "aforo_scaled": 10.001520036480876, "latitude": -11.998467, "longitude": -77.089417, "distrito": "San Martin De Porres" }, "geometry": { "type": "Point", "coordinates": [ -77.089417, -11.998467 ] } },
{ "type": "Feature", "properties": { "NOMBRE_MERCADO": "MERCADO FATIMA                                                                                      ", "aforo": 4000.0, "aforo_scaled": 10.079521908525805, "latitude": -11.957717, "longitude": -77.087903, "distrito": "San Martin De Porres" }, "geometry": { "type": "Point", "coordinates": [ -77.087903, -11.957717 ] } },
{ "type": "Feature", "properties": { "NOMBRE_MERCADO": "MARTIR OLAYA                                                                                        ", "aforo": 4280.0, "aforo_scaled": 10.085122042929031, "latitude": -12.033778, "longitude": -77.049041, "distrito": "San Martin De Porres" }, "geometry": { "type": "Point", "coordinates": [ -77.049041, -12.033778 ] } },
{ "type": "Feature", "properties": { "NOMBRE_MERCADO": "SANTA ROSA                                                                                          ", "aforo": 140.0, "aforo_scaled": 10.002320055681336, "latitude": -12.024261, "longitude": -77.06698, "distrito": "San Martin De Porres" }, "geometry": { "type": "Point", "coordinates": [ -77.06698, -12.024261 ] } },
{ "type": "Feature", "properties": { "NOMBRE_MERCADO": "SUPER MERCADO MIRIAM                                                                                ", "aforo": 240.0, "aforo_scaled": 10.004320103682488, "latitude": -11.966615, "longitude": -77.089726, "distrito": "San Martin De Porres" }, "geometry": { "type": "Point", "coordinates": [ -77.089726, -11.966615 ] } },
{ "type": "Feature", "properties": { "NOMBRE_MERCADO": "MINIMERCADO                                                                                         ", "aforo": 220.0, "aforo_scaled": 10.003920094082257, "latitude": -12.031478, "longitude": -77.064735, "distrito": "San Martin De Porres" }, "geometry": { "type": "Point", "coordinates": [ -77.064735, -12.031478 ] } },
{ "type": "Feature", "properties": { "NOMBRE_MERCADO": "MERCADO MARGARITA I                                                                                 ", "aforo": 24.0, "aforo_scaled": 10.0, "latitude": -11.991565, "longitude": -77.093069, "distrito": "San Martin De Porres" }, "geometry": { "type": "Point", "coordinates": [ -77.093069, -11.991565 ] } },
{ "type": "Feature", "properties": { "NOMBRE_MERCADO": "MINIMERCADO                                                                                         ", "aforo": 120.0, "aforo_scaled": 10.001920046081105, "latitude": -12.028059, "longitude": -77.065975, "distrito": "San Martin De Porres" }, "geometry": { "type": "Point", "coordinates": [ -77.065975, -12.028059 ] } },
{ "type": "Feature", "properties": { "NOMBRE_MERCADO": "MEGACENTRO CAQUETA                                                                                  ", "aforo": 6600.0, "aforo_scaled": 10.131523156555758, "latitude": -12.033401, "longitude": -77.049137, "distrito": "San Martin De Porres" }, "geometry": { "type": "Point", "coordinates": [ -77.049137, -12.033401 ] } },
{ "type": "Feature", "properties": { "NOMBRE_MERCADO": "MERCADO TAMBO                                                                                       ", "aforo": 988.0, "aforo_scaled": 10.019280462731105, "latitude": -12.034938, "longitude": -77.045307, "distrito": "San Martin De Porres" }, "geometry": { "type": "Point", "coordinates": [ -77.045307, -12.034938 ] } },
{ "type": "Feature", "properties": { "NOMBRE_MERCADO": "MERCADO VIRGEN DEL CARMEN                                                                           ", "aforo": 1000.0, "aforo_scaled": 10.019520468491244, "latitude": -11.968136, "longitude": -77.096861, "distrito": "San Martin De Porres" }, "geometry": { "type": "Point", "coordinates": [ -77.096861, -11.968136 ] } },
{ "type": "Feature", "properties": { "NOMBRE_MERCADO": "MINIMERCADO FORTALEZA                                                                               ", "aforo": 760.0, "aforo_scaled": 10.014720353288478, "latitude": -12.027695, "longitude": -77.056302, "distrito": "San Martin De Porres" }, "geometry": { "type": "Point", "coordinates": [ -77.056302, -12.027695 ] } },
{ "type": "Feature", "properties": { "NOMBRE_MERCADO": "ACOSTA                                                                                              ", "aforo": 480.0, "aforo_scaled": 10.009120218885252, "latitude": -12.014187, "longitude": -77.073688, "distrito": "San Martin De Porres" }, "geometry": { "type": "Point", "coordinates": [ -77.073688, -12.014187 ] } },
{ "type": "Feature", "properties": { "NOMBRE_MERCADO": "OVALO DE SANTA ROSA                                                                                 ", "aforo": 2200.0, "aforo_scaled": 10.043521044505068, "latitude": -11.990295, "longitude": -77.106371, "distrito": "San Martin De Porres" }, "geometry": { "type": "Point", "coordinates": [ -77.106371, -11.990295 ] } },
{ "type": "Feature", "properties": { "NOMBRE_MERCADO": "MERCADO LA LUZ DE VIPOL                                                                             ", "aforo": 320.0, "aforo_scaled": 10.00592014208341, "latitude": -11.966731, "longitude": -77.089706, "distrito": "San Martin De Porres" }, "geometry": { "type": "Point", "coordinates": [ -77.089706, -11.966731 ] } },
{ "type": "Feature", "properties": { "NOMBRE_MERCADO": "MERCADO VIRGEN DE LA PUERTA                                                                         ", "aforo": 820.0, "aforo_scaled": 10.01592038208917, "latitude": -11.968847, "longitude": -77.096719, "distrito": "San Martin De Porres" }, "geometry": { "type": "Point", "coordinates": [ -77.096719, -11.968847 ] } },
{ "type": "Feature", "properties": { "NOMBRE_MERCADO": "MERCADO EL OLIVAR                                                                                   ", "aforo": 1700.0, "aforo_scaled": 10.033520804499307, "latitude": -11.973491, "longitude": -77.10339, "distrito": "San Martin De Porres" }, "geometry": { "type": "Point", "coordinates": [ -77.10339, -11.973491 ] } },
{ "type": "Feature", "properties": { "NOMBRE_MERCADO": "MERCADO EL TRIUNFO                                                                                  ", "aforo": 1800.0, "aforo_scaled": 10.03552085250046, "latitude": -11.977458, "longitude": -77.099868, "distrito": "San Martin De Porres" }, "geometry": { "type": "Point", "coordinates": [ -77.099868, -11.977458 ] } },
{ "type": "Feature", "properties": { "NOMBRE_MERCADO": "MERCADO VENECIA                                                                                     ", "aforo": 600.0, "aforo_scaled": 10.011520276486635, "latitude": -11.99521, "longitude": -77.105164, "distrito": "San Martin De Porres" }, "geometry": { "type": "Point", "coordinates": [ -77.105164, -11.99521 ] } },
{ "type": "Feature", "properties": { "NOMBRE_MERCADO": "JARDINES SANTA ROSA                                                                                 ", "aforo": 400.0, "aforo_scaled": 10.007520180484331, "latitude": -11.987351, "longitude": -77.103846, "distrito": "San Martin De Porres" }, "geometry": { "type": "Point", "coordinates": [ -77.103846, -11.987351 ] } },
{ "type": "Feature", "properties": { "NOMBRE_MERCADO": "MERCADO LA ALAMEDA                                                                                  ", "aforo": 596.0, "aforo_scaled": 10.01144027456659, "latitude": -12.020937, "longitude": -77.053906, "distrito": "San Martin De Porres" }, "geometry": { "type": "Point", "coordinates": [ -77.053906, -12.020937 ] } },
{ "type": "Feature", "properties": { "NOMBRE_MERCADO": "GRAN MERCADO TANTAMAYO                                                                              ", "aforo": 2250.0, "aforo_scaled": 10.044521068505643, "latitude": -11.959418, "longitude": -77.096785, "distrito": "San Martin De Porres" }, "geometry": { "type": "Point", "coordinates": [ -77.096785, -11.959418 ] } },
{ "type": "Feature", "properties": { "NOMBRE_MERCADO": "VIRGEN DE FATIMA LA ESPERANZA                                                                       ", "aforo": 410.0, "aforo_scaled": 10.007720185284446, "latitude": -12.030095, "longitude": -77.078814, "distrito": "San Martin De Porres" }, "geometry": { "type": "Point", "coordinates": [ -77.078814, -12.030095 ] } },
{ "type": "Feature", "properties": { "NOMBRE_MERCADO": "MERCADO SEÑOR DE LOS MILAGROS                                                                       ", "aforo": 1440.0, "aforo_scaled": 10.028320679696312, "latitude": -11.959534, "longitude": -77.096683, "distrito": "San Martin De Porres" }, "geometry": { "type": "Point", "coordinates": [ -77.096683, -11.959534 ] } },
{ "type": "Feature", "properties": { "NOMBRE_MERCADO": "MINIMERCADO SN                                                                                      ", "aforo": 294.0, "aforo_scaled": 10.00540012960311, "latitude": -12.031665, "longitude": -77.06516, "distrito": "San Martin De Porres" }, "geometry": { "type": "Point", "coordinates": [ -77.06516, -12.031665 ] } },
{ "type": "Feature", "properties": { "NOMBRE_MERCADO": "MINIMARKET FLORES                                                                                   ", "aforo": 400.0, "aforo_scaled": 10.007520180484331, "latitude": -12.033262, "longitude": -77.053303, "distrito": "San Martin De Porres" }, "geometry": { "type": "Point", "coordinates": [ -77.053303, -12.033262 ] } },
{ "type": "Feature", "properties": { "NOMBRE_MERCADO": "SAN JUAN BAUTISTA                                                                                   ", "aforo": 200.0, "aforo_scaled": 10.003520084482028, "latitude": -12.01827, "longitude": -77.05906, "distrito": "San Martin De Porres" }, "geometry": { "type": "Point", "coordinates": [ -77.05906, -12.01827 ] } },
{ "type": "Feature", "properties": { "NOMBRE_MERCADO": "MERCADO PEDRO PAULET                                                                                ", "aforo": 480.0, "aforo_scaled": 10.009120218885252, "latitude": -12.025048, "longitude": -77.053691, "distrito": "San Martin De Porres" }, "geometry": { "type": "Point", "coordinates": [ -77.053691, -12.025048 ] } },
{ "type": "Feature", "properties": { "NOMBRE_MERCADO": "MERCADO SOL DE NARANJAL                                                                             ", "aforo": 2400.0, "aforo_scaled": 10.047521140507373, "latitude": -11.973283, "longitude": -77.089935, "distrito": "San Martin De Porres" }, "geometry": { "type": "Point", "coordinates": [ -77.089935, -11.973283 ] } },
{ "type": "Feature", "properties": { "NOMBRE_MERCADO": "MERCADO SARITA COLONIA                                                                              ", "aforo": 8400.0, "aforo_scaled": 10.167524020576494, "latitude": -11.98786, "longitude": -77.112523, "distrito": "San Martin De Porres" }, "geometry": { "type": "Point", "coordinates": [ -77.112523, -11.98786 ] } },
{ "type": "Feature", "properties": { "NOMBRE_MERCADO": "VIRGEN DE FATIMA                                                                                    ", "aforo": 1960.0, "aforo_scaled": 10.038720929302304, "latitude": -12.03049, "longitude": -77.077126, "distrito": "San Martin De Porres" }, "geometry": { "type": "Point", "coordinates": [ -77.077126, -12.03049 ] } },
{ "type": "Feature", "properties": { "NOMBRE_MERCADO": "MERCADO JOSE GRANDA                                                                                 ", "aforo": 560.0, "aforo_scaled": 10.010720257286176, "latitude": -12.025853, "longitude": -77.07633, "distrito": "San Martin De Porres" }, "geometry": { "type": "Point", "coordinates": [ -77.07633, -12.025853 ] } },
{ "type": "Feature", "properties": { "NOMBRE_MERCADO": "ROSA SAAVEDRA ZUÑIGA                                                                                ", "aforo": 240.0, "aforo_scaled": 10.004320103682488, "latitude": -12.034447, "longitude": -77.080862, "distrito": "San Martin De Porres" }, "geometry": { "type": "Point", "coordinates": [ -77.080862, -12.034447 ] } },
{ "type": "Feature", "properties": { "NOMBRE_MERCADO": "III HORIZONTES                                                                                      ", "aforo": 680.0, "aforo_scaled": 10.013120314887557, "latitude": -11.980367, "longitude": -77.102108, "distrito": "San Martin De Porres" }, "geometry": { "type": "Point", "coordinates": [ -77.102108, -11.980367 ] } },
{ "type": "Feature", "properties": { "NOMBRE_MERCADO": "MERCADO MARTIR OLAYA                                                                                ", "aforo": 10000.0, "aforo_scaled": 10.199524788594927, "latitude": -12.03464, "longitude": -77.046227, "distrito": "San Martin De Porres" }, "geometry": { "type": "Point", "coordinates": [ -77.046227, -12.03464 ] } },
{ "type": "Feature", "properties": { "NOMBRE_MERCADO": "MERCADO 2000                                                                                        ", "aforo": 720.0, "aforo_scaled": 10.013920334088018, "latitude": -11.976309, "longitude": -77.09858, "distrito": "San Martin De Porres" }, "geometry": { "type": "Point", "coordinates": [ -77.09858, -11.976309 ] } },
{ "type": "Feature", "properties": { "NOMBRE_MERCADO": "VIRGEN DEL CARMEN                                                                                   ", "aforo": 504.0, "aforo_scaled": 10.00960023040553, "latitude": -12.029695, "longitude": -77.065604, "distrito": "San Martin De Porres" }, "geometry": { "type": "Point", "coordinates": [ -77.065604, -12.029695 ] } },
{ "type": "Feature", "properties": { "NOMBRE_MERCADO": "VIRGEN DE FATIMA                                                                                    ", "aforo": 1080.0, "aforo_scaled": 10.021120506892165, "latitude": -11.976462, "longitude": -77.084522, "distrito": "San Martin De Porres" }, "geometry": { "type": "Point", "coordinates": [ -77.084522, -11.976462 ] } },
{ "type": "Feature", "properties": { "NOMBRE_MERCADO": "ASOCIACION CENTRO FERIAL CAQUETA                                                                    ", "aforo": 10500.0, "aforo_scaled": 10.209525028600686, "latitude": -12.034579, "longitude": -77.046606, "distrito": "San Martin De Porres" }, "geometry": { "type": "Point", "coordinates": [ -77.046606, -12.034579 ] } },
{ "type": "Feature", "properties": { "NOMBRE_MERCADO": "MERCADO UNIVERSO                                                                                    ", "aforo": 490.0, "aforo_scaled": 10.009320223685368, "latitude": -11.993593, "longitude": -77.103308, "distrito": "San Martin De Porres" }, "geometry": { "type": "Point", "coordinates": [ -77.103308, -11.993593 ] } },
{ "type": "Feature", "properties": { "NOMBRE_MERCADO": "SAN LUCAS                                                                                           ", "aforo": 480.0, "aforo_scaled": 10.009120218885252, "latitude": -12.016947, "longitude": -77.055096, "distrito": "San Martin De Porres" }, "geometry": { "type": "Point", "coordinates": [ -77.055096, -12.016947 ] } },
{ "type": "Feature", "properties": { "NOMBRE_MERCADO": "MERCADO LOS JAZMINES                                                                                ", "aforo": 640.0, "aforo_scaled": 10.012320295687097, "latitude": -11.981389, "longitude": -77.089816, "distrito": "San Martin De Porres" }, "geometry": { "type": "Point", "coordinates": [ -77.089816, -11.981389 ] } },
{ "type": "Feature", "properties": { "NOMBRE_MERCADO": "MERCADO ZARUMILLA                                                                                   ", "aforo": 7000.0, "aforo_scaled": 10.139523348560365, "latitude": -12.034619, "longitude": -77.047035, "distrito": "San Martin De Porres" }, "geometry": { "type": "Point", "coordinates": [ -77.047035, -12.034619 ] } },
{ "type": "Feature", "properties": { "NOMBRE_MERCADO": "MINIMARKET                                                                                          ", "aforo": 180.0, "aforo_scaled": 10.003120074881798, "latitude": -12.016351, "longitude": -77.055022, "distrito": "San Martin De Porres" }, "geometry": { "type": "Point", "coordinates": [ -77.055022, -12.016351 ] } },
{ "type": "Feature", "properties": { "NOMBRE_MERCADO": "MERCADO LA CAPULLANA                                                                                ", "aforo": 3000.0, "aforo_scaled": 10.059521428514284, "latitude": -11.962498, "longitude": -77.093976, "distrito": "San Martin De Porres" }, "geometry": { "type": "Point", "coordinates": [ -77.093976, -11.962498 ] } },
{ "type": "Feature", "properties": { "NOMBRE_MERCADO": "MERCADO DIVINA MISERICORDIA                                                                         ", "aforo": 400.0, "aforo_scaled": 10.007520180484331, "latitude": -11.994298, "longitude": -77.090037, "distrito": "San Martin De Porres" }, "geometry": { "type": "Point", "coordinates": [ -77.090037, -11.994298 ] } },
{ "type": "Feature", "properties": { "NOMBRE_MERCADO": "MERCADO LAS PONCIANAS                                                                               ", "aforo": 1520.0, "aforo_scaled": 10.029920718097234, "latitude": -11.982537, "longitude": -77.101432, "distrito": "San Martin De Porres" }, "geometry": { "type": "Point", "coordinates": [ -77.101432, -11.982537 ] } },
{ "type": "Feature", "properties": { "NOMBRE_MERCADO": "CANTA CALLAO                                                                                        ", "aforo": 2400.0, "aforo_scaled": 10.047521140507373, "latitude": -11.98353, "longitude": -77.097934, "distrito": "San Martin De Porres" }, "geometry": { "type": "Point", "coordinates": [ -77.097934, -11.98353 ] } },
{ "type": "Feature", "properties": { "NOMBRE_MERCADO": "MERCADO SANTA MARIA DE LOS ANGELES                                                                  ", "aforo": 2388.0, "aforo_scaled": 10.047281134747234, "latitude": -11.945863, "longitude": -77.087886, "distrito": "San Martin De Porres" }, "geometry": { "type": "Point", "coordinates": [ -77.087886, -11.945863 ] } },
{ "type": "Feature", "properties": { "NOMBRE_MERCADO": "LA LUZ DIVINA                                                                                       ", "aforo": 1600.0, "aforo_scaled": 10.031520756498155, "latitude": -11.979683, "longitude": -77.088894, "distrito": "San Martin De Porres" }, "geometry": { "type": "Point", "coordinates": [ -77.088894, -11.979683 ] } },
{ "type": "Feature", "properties": { "NOMBRE_MERCADO": "20 DE AGOSTO                                                                                        ", "aforo": 1400.0, "aforo_scaled": 10.027520660495853, "latitude": -12.004725, "longitude": -77.094419, "distrito": "San Martin De Porres" }, "geometry": { "type": "Point", "coordinates": [ -77.094419, -12.004725 ] } },
{ "type": "Feature", "properties": { "NOMBRE_MERCADO": "MERCADO SEÑOR DE LOS MILAGROS                                                                       ", "aforo": 1800.0, "aforo_scaled": 10.03552085250046, "latitude": -11.984312, "longitude": -77.093163, "distrito": "San Martin De Porres" }, "geometry": { "type": "Point", "coordinates": [ -77.093163, -11.984312 ] } },
{ "type": "Feature", "properties": { "NOMBRE_MERCADO": "MERCADO VIRGEN DEL CARMEN                                                                           ", "aforo": 900.0, "aforo_scaled": 10.017520420490092, "latitude": -11.976902, "longitude": -77.085381, "distrito": "San Martin De Porres" }, "geometry": { "type": "Point", "coordinates": [ -77.085381, -11.976902 ] } },
{ "type": "Feature", "properties": { "NOMBRE_MERCADO": "PUENTE CAMOTE                                                                                       ", "aforo": 600.0, "aforo_scaled": 10.011520276486635, "latitude": -11.991978, "longitude": -77.093385, "distrito": "San Martin De Porres" }, "geometry": { "type": "Point", "coordinates": [ -77.093385, -11.991978 ] } },
{ "type": "Feature", "properties": { "NOMBRE_MERCADO": "MERCADO MIVISU                                                                                      ", "aforo": 1600.0, "aforo_scaled": 10.031520756498155, "latitude": -11.989535, "longitude": -77.110136, "distrito": "San Martin De Porres" }, "geometry": { "type": "Point", "coordinates": [ -77.110136, -11.989535 ] } },
{ "type": "Feature", "properties": { "NOMBRE_MERCADO": "MERCADO LOS GIRASOLES                                                                               ", "aforo": 2262.0, "aforo_scaled": 10.044761074265782, "latitude": -11.951733, "longitude": -77.08735, "distrito": "San Martin De Porres" }, "geometry": { "type": "Point", "coordinates": [ -77.08735, -11.951733 ] } },
{ "type": "Feature", "properties": { "NOMBRE_MERCADO": "VIRGEN DE LA MERCED                                                                                 ", "aforo": 15000.0, "aforo_scaled": 10.299527188652528, "latitude": -12.008306, "longitude": -77.090615, "distrito": "San Martin De Porres" }, "geometry": { "type": "Point", "coordinates": [ -77.090615, -12.008306 ] } },
{ "type": "Feature", "properties": { "NOMBRE_MERCADO": "MERCADO HUANDOY                                                                                     ", "aforo": 3000.0, "aforo_scaled": 10.059521428514284, "latitude": -11.976684, "longitude": -77.083596, "distrito": "San Martin De Porres" }, "geometry": { "type": "Point", "coordinates": [ -77.083596, -11.976684 ] } },
{ "type": "Feature", "properties": { "NOMBRE_MERCADO": "LA UNION                                                                                            ", "aforo": 400.0, "aforo_scaled": 10.007520180484331, "latitude": -12.015291, "longitude": -77.076148, "distrito": "San Martin De Porres" }, "geometry": { "type": "Point", "coordinates": [ -77.076148, -12.015291 ] } },
{ "type": "Feature", "properties": { "NOMBRE_MERCADO": "JUNTA DE PROPIETARIOS DEL MERCADO DE PRODUCTORES FIORI NRO 1                                        ", "aforo": 40000.0, "aforo_scaled": 10.799539188940535, "latitude": -12.009741, "longitude": -77.057327, "distrito": "San Martin De Porres" }, "geometry": { "type": "Point", "coordinates": [ -77.057327, -12.009741 ] } },
{ "type": "Feature", "properties": { "NOMBRE_MERCADO": "MERCADO SEÑOR DE LOS MILAGROS - SAN DIEGO                                                           ", "aforo": 7600.0, "aforo_scaled": 10.151523636567278, "latitude": -11.945585, "longitude": -77.087596, "distrito": "San Martin De Porres" }, "geometry": { "type": "Point", "coordinates": [ -77.087596, -11.945585 ] } },
{ "type": "Feature", "properties": { "NOMBRE_MERCADO": "TEOFILA HERNANDEZ                                                                                   ", "aforo": 2200.0, "aforo_scaled": 10.043521044505068, "latitude": -11.986781, "longitude": -77.099283, "distrito": "San Martin De Porres" }, "geometry": { "type": "Point", "coordinates": [ -77.099283, -11.986781 ] } },
{ "type": "Feature", "properties": { "NOMBRE_MERCADO": "MERCADO CORPAC                                                                                      ", "aforo": 3650.0, "aforo_scaled": 10.072521740521772, "latitude": -12.004045, "longitude": -77.094287, "distrito": "San Martin De Porres" }, "geometry": { "type": "Point", "coordinates": [ -77.094287, -12.004045 ] } },
{ "type": "Feature", "properties": { "NOMBRE_MERCADO": "LOS CHAQUIS                                                                                         ", "aforo": 2000.0, "aforo_scaled": 10.039520948502764, "latitude": -11.991268, "longitude": -77.096344, "distrito": "San Martin De Porres" }, "geometry": { "type": "Point", "coordinates": [ -77.096344, -11.991268 ] } },
{ "type": "Feature", "properties": { "NOMBRE_MERCADO": "LOS CIPRESES                                                                                        ", "aforo": 1000.0, "aforo_scaled": 10.019520468491244, "latitude": -11.999827, "longitude": -77.102007, "distrito": "San Martin De Porres" }, "geometry": { "type": "Point", "coordinates": [ -77.102007, -11.999827 ] } },
{ "type": "Feature", "properties": { "NOMBRE_MERCADO": "VIRGEN DEL CARMEN                                                                                   ", "aforo": 840.0, "aforo_scaled": 10.016320391689401, "latitude": -11.993771, "longitude": -77.106774, "distrito": "San Martin De Porres" }, "geometry": { "type": "Point", "coordinates": [ -77.106774, -11.993771 ] } },
{ "type": "Feature", "properties": { "NOMBRE_MERCADO": "MICRO MERCADO LOS OLIVOS                                                                            ", "aforo": 1200.0, "aforo_scaled": 10.023520564493548, "latitude": -11.988001, "longitude": -77.083084, "distrito": "San Martin De Porres" }, "geometry": { "type": "Point", "coordinates": [ -77.083084, -11.988001 ] } },
{ "type": "Feature", "properties": { "NOMBRE_MERCADO": "SEÑOR DE LOS MILAGROS                                                                               ", "aforo": 320.0, "aforo_scaled": 10.00592014208341, "latitude": -12.019091, "longitude": -77.061329, "distrito": "San Martin De Porres" }, "geometry": { "type": "Point", "coordinates": [ -77.061329, -12.019091 ] } },
{ "type": "Feature", "properties": { "NOMBRE_MERCADO": "MERCADO MODELO SAN DIEGO                                                                            ", "aforo": 4106.0, "aforo_scaled": 10.081641959407026, "latitude": -11.946192, "longitude": -77.088069, "distrito": "San Martin De Porres" }, "geometry": { "type": "Point", "coordinates": [ -77.088069, -11.946192 ] } },
{ "type": "Feature", "properties": { "NOMBRE_MERCADO": "MERCADO PALAO                                                                                       ", "aforo": 960.0, "aforo_scaled": 10.018720449290782, "latitude": -12.016695, "longitude": -77.054921, "distrito": "San Martin De Porres" }, "geometry": { "type": "Point", "coordinates": [ -77.054921, -12.016695 ] } },
{ "type": "Feature", "properties": { "NOMBRE_MERCADO": "MERCADO 10 DE JUNIO                                                                                 ", "aforo": 4096.0, "aforo_scaled": 10.081441954606911, "latitude": -12.027054, "longitude": -77.048323, "distrito": "San Martin De Porres" }, "geometry": { "type": "Point", "coordinates": [ -77.048323, -12.027054 ] } },
{ "type": "Feature", "properties": { "NOMBRE_MERCADO": "MERCADO 6 DE FEBRERO                                                                                ", "aforo": 1170.0, "aforo_scaled": 10.022920550093202, "latitude": -12.005421, "longitude": -77.086026, "distrito": "San Martin De Porres" }, "geometry": { "type": "Point", "coordinates": [ -77.086026, -12.005421 ] } },
{ "type": "Feature", "properties": { "NOMBRE_MERCADO": "ASOCIACION DE COMERCIANTES MERCADO SANTA ROSA DE GARAGAY                                            ", "aforo": 1024.0, "aforo_scaled": 10.02000048001152, "latitude": -12.012759, "longitude": -77.082138, "distrito": "San Martin De Porres" }, "geometry": { "type": "Point", "coordinates": [ -77.082138, -12.012759 ] } },
{ "type": "Feature", "properties": { "NOMBRE_MERCADO": "EL TRIUNFO                                                                                          ", "aforo": 3400.0, "aforo_scaled": 10.067521620518892, "latitude": -12.003248, "longitude": -77.083499, "distrito": "San Martin De Porres" }, "geometry": { "type": "Point", "coordinates": [ -77.083499, -12.003248 ] } },
{ "type": "Feature", "properties": { "NOMBRE_MERCADO": "MERCADO CESAR VALLEJO                                                                               ", "aforo": 6000.0, "aforo_scaled": 10.119522868548845, "latitude": -12.014564, "longitude": -77.086411, "distrito": "San Martin De Porres" }, "geometry": { "type": "Point", "coordinates": [ -77.086411, -12.014564 ] } },
{ "type": "Feature", "properties": { "NOMBRE_MERCADO": "MERCADO SANTA ELENA                                                                                 ", "aforo": 1070.0, "aforo_scaled": 10.02092050209205, "latitude": -12.01767, "longitude": -77.077303, "distrito": "San Martin De Porres" }, "geometry": { "type": "Point", "coordinates": [ -77.077303, -12.01767 ] } },
{ "type": "Feature", "properties": { "NOMBRE_MERCADO": "RICARDO PALMA                                                                                       ", "aforo": 640.0, "aforo_scaled": 10.012320295687097, "latitude": -12.021359, "longitude": -77.052937, "distrito": "San Martin De Porres" }, "geometry": { "type": "Point", "coordinates": [ -77.052937, -12.021359 ] } },
{ "type": "Feature", "properties": { "NOMBRE_MERCADO": "INMACULADA CONCEPCION                                                                               ", "aforo": 2200.0, "aforo_scaled": 10.043521044505068, "latitude": -12.005965, "longitude": -77.0862, "distrito": "San Martin De Porres" }, "geometry": { "type": "Point", "coordinates": [ -77.0862, -12.005965 ] } },
{ "type": "Feature", "properties": { "NOMBRE_MERCADO": "EL MILAGRO                                                                                          ", "aforo": 1920.0, "aforo_scaled": 10.037920910101843, "latitude": -12.017488, "longitude": -77.076605, "distrito": "San Martin De Porres" }, "geometry": { "type": "Point", "coordinates": [ -77.076605, -12.017488 ] } },
{ "type": "Feature", "properties": { "NOMBRE_MERCADO": "CONDEVILLA                                                                                          ", "aforo": 30000.0, "aforo_scaled": 10.599534388825331, "latitude": -12.022335, "longitude": -77.082849, "distrito": "San Martin De Porres" }, "geometry": { "type": "Point", "coordinates": [ -77.082849, -12.022335 ] } },
{ "type": "Feature", "properties": { "NOMBRE_MERCADO": "MERCADO EL CHACO                                                                                    ", "aforo": 2000.0, "aforo_scaled": 10.039520948502764, "latitude": -12.031117, "longitude": -77.065074, "distrito": "San Martin De Porres" }, "geometry": { "type": "Point", "coordinates": [ -77.065074, -12.031117 ] } },
{ "type": "Feature", "properties": { "NOMBRE_MERCADO": "MERCADO AMAKELLA                                                                                    ", "aforo": 1480.0, "aforo_scaled": 10.029120698896774, "latitude": -12.022111, "longitude": -77.077901, "distrito": "San Martin De Porres" }, "geometry": { "type": "Point", "coordinates": [ -77.077901, -12.022111 ] } },
{ "type": "Feature", "properties": { "NOMBRE_MERCADO": "MERCADO CENTRO CIVICO                                                                               ", "aforo": 32320.0, "aforo_scaled": 10.645935502452058, "latitude": -12.027843, "longitude": -77.071897, "distrito": "San Martin De Porres" }, "geometry": { "type": "Point", "coordinates": [ -77.071897, -12.027843 ] } },
{ "type": "Feature", "properties": { "NOMBRE_MERCADO": "SANTA CATALINA I                                                                                    ", "aforo": 620.0, "aforo_scaled": 10.011920286086866, "latitude": -12.028422, "longitude": -77.055632, "distrito": "San Martin De Porres" }, "geometry": { "type": "Point", "coordinates": [ -77.055632, -12.028422 ] } },
{ "type": "Feature", "properties": { "NOMBRE_MERCADO": "SANTA ROSA                                                                                          ", "aforo": 9000.0, "aforo_scaled": 10.179524308583407, "latitude": -12.035948, "longitude": -77.088449, "distrito": "San Martin De Porres" }, "geometry": { "type": "Point", "coordinates": [ -77.088449, -12.035948 ] } },
{ "type": "Feature", "properties": { "NOMBRE_MERCADO": "MERCADO BELEN                                                                                       ", "aforo": 6000.0, "aforo_scaled": 10.119522868548845, "latitude": -12.029294, "longitude": -77.071771, "distrito": "San Martin De Porres" }, "geometry": { "type": "Point", "coordinates": [ -77.071771, -12.029294 ] } },
{ "type": "Feature", "properties": { "NOMBRE_MERCADO": "MERCADO LAS MERCEDES                                                                                ", "aforo": 3472.0, "aforo_scaled": 10.068961655079722, "latitude": -12.031699, "longitude": -77.057738, "distrito": "San Martin De Porres" }, "geometry": { "type": "Point", "coordinates": [ -77.057738, -12.031699 ] } },
{ "type": "Feature", "properties": { "NOMBRE_MERCADO": "MERCADO 20 DE ENERO                                                                                 ", "aforo": 2000.0, "aforo_scaled": 10.039520948502764, "latitude": -12.042524, "longitude": -77.085871, "distrito": "Carmen De La Legua-Reynoso" }, "geometry": { "type": "Point", "coordinates": [ -77.085871, -12.042524 ] } },
{ "type": "Feature", "properties": { "NOMBRE_MERCADO": "MERCADO REYNOSO                                                                                     ", "aforo": 6000.0, "aforo_scaled": 10.119522868548845, "latitude": -12.042291, "longitude": -77.096028, "distrito": "Carmen De La Legua-Reynoso" }, "geometry": { "type": "Point", "coordinates": [ -77.096028, -12.042291 ] } },
{ "type": "Feature", "properties": { "NOMBRE_MERCADO": "MERCADO DE CARMEN DE LA LEGUA                                                                       ", "aforo": 1764.0, "aforo_scaled": 10.034800835220045, "latitude": -12.040117, "longitude": -77.09024, "distrito": "Carmen De La Legua-Reynoso" }, "geometry": { "type": "Point", "coordinates": [ -77.09024, -12.040117 ] } },
{ "type": "Feature", "properties": { "NOMBRE_MERCADO": "MERCADO MODELO LA PERLA                                                                             ", "aforo": 320.0, "aforo_scaled": 10.00592014208341, "latitude": -12.071757, "longitude": -77.11123, "distrito": "La Perla" }, "geometry": { "type": "Point", "coordinates": [ -77.11123, -12.071757 ] } },
{ "type": "Feature", "properties": { "NOMBRE_MERCADO": "MERCADO METRITO                                                                                     ", "aforo": 320.0, "aforo_scaled": 10.00592014208341, "latitude": -12.070794, "longitude": -77.114502, "distrito": "La Perla" }, "geometry": { "type": "Point", "coordinates": [ -77.114502, -12.070794 ] } },
{ "type": "Feature", "properties": { "NOMBRE_MERCADO": "MERCADO PLAZA TROPICAL                                                                              ", "aforo": 462.0, "aforo_scaled": 10.008760210245045, "latitude": -12.070877, "longitude": -77.114097, "distrito": "La Perla" }, "geometry": { "type": "Point", "coordinates": [ -77.114097, -12.070877 ] } },
{ "type": "Feature", "properties": { "NOMBRE_MERCADO": "MINIMERCADO LA ESTACION                                                                             ", "aforo": 400.0, "aforo_scaled": 10.007520180484331, "latitude": -12.070885, "longitude": -77.114265, "distrito": "La Perla" }, "geometry": { "type": "Point", "coordinates": [ -77.114265, -12.070885 ] } },
{ "type": "Feature", "properties": { "NOMBRE_MERCADO": "MERCADO NUEVA PRIMAVERA                                                                             ", "aforo": 200.0, "aforo_scaled": 10.003520084482028, "latitude": -12.067708, "longitude": -77.129187, "distrito": "La Perla" }, "geometry": { "type": "Point", "coordinates": [ -77.129187, -12.067708 ] } },
{ "type": "Feature", "properties": { "NOMBRE_MERCADO": "MERCADO NUEVA FAMILIA                                                                               ", "aforo": 240.0, "aforo_scaled": 10.004320103682488, "latitude": -12.065995, "longitude": -77.108802, "distrito": "La Perla" }, "geometry": { "type": "Point", "coordinates": [ -77.108802, -12.065995 ] } },
{ "type": "Feature", "properties": { "NOMBRE_MERCADO": "MERCADO CAHUIDE                                                                                     ", "aforo": 140.0, "aforo_scaled": 10.002320055681336, "latitude": -12.069218, "longitude": -77.12438, "distrito": "La Perla" }, "geometry": { "type": "Point", "coordinates": [ -77.12438, -12.069218 ] } },
{ "type": "Feature", "properties": { "NOMBRE_MERCADO": "MERCADO 10 DE OCTUBRE                                                                               ", "aforo": 574.0, "aforo_scaled": 10.011000264006336, "latitude": -12.069486, "longitude": -77.124075, "distrito": "La Perla" }, "geometry": { "type": "Point", "coordinates": [ -77.124075, -12.069486 ] } },
{ "type": "Feature", "properties": { "NOMBRE_MERCADO": "MERCADO 10 DE AGOSTO                                                                                ", "aforo": 500.0, "aforo_scaled": 10.009520228485483, "latitude": -12.06903, "longitude": -77.12442, "distrito": "La Perla" }, "geometry": { "type": "Point", "coordinates": [ -77.12442, -12.06903 ] } },
{ "type": "Feature", "properties": { "NOMBRE_MERCADO": "MERCADO PARDO                                                                                       ", "aforo": 160.0, "aforo_scaled": 10.002720065281567, "latitude": -12.065765, "longitude": -77.105371, "distrito": "La Perla" }, "geometry": { "type": "Point", "coordinates": [ -77.105371, -12.065765 ] } },
{ "type": "Feature", "properties": { "NOMBRE_MERCADO": "MERCADO PERLEÑO                                                                                     ", "aforo": 300.0, "aforo_scaled": 10.005520132483179, "latitude": -12.076549, "longitude": -77.112958, "distrito": "La Perla" }, "geometry": { "type": "Point", "coordinates": [ -77.112958, -12.076549 ] } },
{ "type": "Feature", "properties": { "NOMBRE_MERCADO": "MERCADO 25 DE ABRIL                                                                                 ", "aforo": 102.0, "aforo_scaled": 10.001560037440898, "latitude": -12.076541, "longitude": -77.113201, "distrito": "La Perla" }, "geometry": { "type": "Point", "coordinates": [ -77.113201, -12.076541 ] } },
{ "type": "Feature", "properties": { "NOMBRE_MERCADO": "MERCADO LA MARINA                                                                                   ", "aforo": 3000.0, "aforo_scaled": 10.059521428514284, "latitude": -12.06699, "longitude": -77.114713, "distrito": "La Perla" }, "geometry": { "type": "Point", "coordinates": [ -77.114713, -12.06699 ] } },
{ "type": "Feature", "properties": { "NOMBRE_MERCADO": "MERCADO RAMON CASTILLA                                                                              ", "aforo": 480.0, "aforo_scaled": 10.009120218885252, "latitude": -12.070292, "longitude": -77.113802, "distrito": "La Perla" }, "geometry": { "type": "Point", "coordinates": [ -77.113802, -12.070292 ] } },
{ "type": "Feature", "properties": { "NOMBRE_MERCADO": "MINIMERCADO MINKILTA                                                                                ", "aforo": 200.0, "aforo_scaled": 10.003520084482028, "latitude": -12.070975, "longitude": -77.114114, "distrito": "La Perla" }, "geometry": { "type": "Point", "coordinates": [ -77.114114, -12.070975 ] } },
{ "type": "Feature", "properties": { "NOMBRE_MERCADO": "MERCADO LA PERLA NRO 1                                                                              ", "aforo": 3526.0, "aforo_scaled": 10.070041681000344, "latitude": -12.068253, "longitude": -77.124667, "distrito": "La Perla" }, "geometry": { "type": "Point", "coordinates": [ -77.124667, -12.068253 ] } },
{ "type": "Feature", "properties": { "NOMBRE_MERCADO": "MERCADO VIRGEN DEL CARMEN                                                                           ", "aforo": 1000.0, "aforo_scaled": 10.019520468491244, "latitude": -12.0696, "longitude": -77.161247, "distrito": "La Punta" }, "geometry": { "type": "Point", "coordinates": [ -77.161247, -12.0696 ] } },
{ "type": "Feature", "properties": { "NOMBRE_MERCADO": "MERCADO CRUZ DE MOTUPE                                                                              ", "aforo": 2560.0, "aforo_scaled": 10.050721217309215, "latitude": -11.849999, "longitude": -77.124601, "distrito": "Mi Peru" }, "geometry": { "type": "Point", "coordinates": [ -77.124601, -11.849999 ] } },
{ "type": "Feature", "properties": { "NOMBRE_MERCADO": "10 DE ENERO                                                                                         ", "aforo": 1400.0, "aforo_scaled": 10.027520660495853, "latitude": -11.850468, "longitude": -77.119834, "distrito": "Mi Peru" }, "geometry": { "type": "Point", "coordinates": [ -77.119834, -11.850468 ] } },
{ "type": "Feature", "properties": { "NOMBRE_MERCADO": "MERCADO 12 DE MAYO                                                                                  ", "aforo": 900.0, "aforo_scaled": 10.017520420490092, "latitude": -11.855699, "longitude": -77.123883, "distrito": "Mi Peru" }, "geometry": { "type": "Point", "coordinates": [ -77.123883, -11.855699 ] } },
{ "type": "Feature", "properties": { "NOMBRE_MERCADO": "MERCADO VIRGEN DE LAS MERCEDES                                                                      ", "aforo": 5800.0, "aforo_scaled": 10.115522772546541, "latitude": -11.854409, "longitude": -77.125012, "distrito": "Mi Peru" }, "geometry": { "type": "Point", "coordinates": [ -77.125012, -11.854409 ] } },
{ "type": "Feature", "properties": { "NOMBRE_MERCADO": "CENTRO COMERCIAL SANTA ROSA                                                                         ", "aforo": 600.0, "aforo_scaled": 10.011520276486635, "latitude": -11.859613, "longitude": -77.127071, "distrito": "Mi Peru" }, "geometry": { "type": "Point", "coordinates": [ -77.127071, -11.859613 ] } },
{ "type": "Feature", "properties": { "NOMBRE_MERCADO": "LOS LICENCIADOS                                                                                     ", "aforo": 3200.0, "aforo_scaled": 10.063521524516588, "latitude": -11.877965, "longitude": -77.129268, "distrito": "Ventanilla" }, "geometry": { "type": "Point", "coordinates": [ -77.129268, -11.877965 ] } },
{ "type": "Feature", "properties": { "NOMBRE_MERCADO": "MERCADO SATELITE                                                                                    ", "aforo": 4000.0, "aforo_scaled": 10.079521908525805, "latitude": -11.868244, "longitude": -77.114148, "distrito": "Ventanilla" }, "geometry": { "type": "Point", "coordinates": [ -77.114148, -11.868244 ] } },
{ "type": "Feature", "properties": { "NOMBRE_MERCADO": "MERCADO PARTICULAR                                                                                  ", "aforo": 6800.0, "aforo_scaled": 10.135523252558061, "latitude": -11.8725, "longitude": -77.122005, "distrito": "Ventanilla" }, "geometry": { "type": "Point", "coordinates": [ -77.122005, -11.8725 ] } },
{ "type": "Feature", "properties": { "NOMBRE_MERCADO": "MERCADO VIRGEN MARIA                                                                                ", "aforo": 7000.0, "aforo_scaled": 10.139523348560365, "latitude": -11.876217, "longitude": -77.140357, "distrito": "Ventanilla" }, "geometry": { "type": "Point", "coordinates": [ -77.140357, -11.876217 ] } },
{ "type": "Feature", "properties": { "NOMBRE_MERCADO": "MINIMERCADO LOS LICENCIADOS                                                                         ", "aforo": 360.0, "aforo_scaled": 10.006720161283871, "latitude": -11.877988, "longitude": -77.129738, "distrito": "Ventanilla" }, "geometry": { "type": "Point", "coordinates": [ -77.129738, -11.877988 ] } },
{ "type": "Feature", "properties": { "NOMBRE_MERCADO": "SAN VALENTIN                                                                                        ", "aforo": 340.0, "aforo_scaled": 10.00632015168364, "latitude": -11.898138, "longitude": -77.126707, "distrito": "Ventanilla" }, "geometry": { "type": "Point", "coordinates": [ -77.126707, -11.898138 ] } },
{ "type": "Feature", "properties": { "NOMBRE_MERCADO": "VIRGEN DE LA PUERTA                                                                                 ", "aforo": 300.0, "aforo_scaled": 10.005520132483179, "latitude": -11.877527, "longitude": -77.129375, "distrito": "Ventanilla" }, "geometry": { "type": "Point", "coordinates": [ -77.129375, -11.877527 ] } },
{ "type": "Feature", "properties": { "NOMBRE_MERCADO": "CENTRO COMERCIAL TODO BUENO Y BONITO                                                                ", "aforo": 400.0, "aforo_scaled": 10.007520180484331, "latitude": -11.840037, "longitude": -77.125535, "distrito": "Ventanilla" }, "geometry": { "type": "Point", "coordinates": [ -77.125535, -11.840037 ] } },
{ "type": "Feature", "properties": { "NOMBRE_MERCADO": "YENNY BUMACHAR DE KOURI                                                                             ", "aforo": 600.0, "aforo_scaled": 10.011520276486635, "latitude": -11.848138, "longitude": -77.130773, "distrito": "Ventanilla" }, "geometry": { "type": "Point", "coordinates": [ -77.130773, -11.848138 ] } },
{ "type": "Feature", "properties": { "NOMBRE_MERCADO": "MERCADO NUEVO PROGRESO NELLY                                                                        ", "aforo": 500.0, "aforo_scaled": 10.009520228485483, "latitude": -11.839133, "longitude": -77.125448, "distrito": "Ventanilla" }, "geometry": { "type": "Point", "coordinates": [ -77.125448, -11.839133 ] } },
{ "type": "Feature", "properties": { "NOMBRE_MERCADO": "BRISAS DEL MAR                                                                                      ", "aforo": 700.0, "aforo_scaled": 10.013520324487788, "latitude": -11.855367, "longitude": -77.140887, "distrito": "Ventanilla" }, "geometry": { "type": "Point", "coordinates": [ -77.140887, -11.855367 ] } },
{ "type": "Feature", "properties": { "NOMBRE_MERCADO": "MERCADO HATUN KOURI                                                                                 ", "aforo": 6198.0, "aforo_scaled": 10.123482963591126, "latitude": -11.839023, "longitude": -77.138755, "distrito": "Ventanilla" }, "geometry": { "type": "Point", "coordinates": [ -77.138755, -11.839023 ] } },
{ "type": "Feature", "properties": { "NOMBRE_MERCADO": "MERCADO 2000                                                                                        ", "aforo": 7000.0, "aforo_scaled": 10.139523348560365, "latitude": -11.837246, "longitude": -77.145512, "distrito": "Ventanilla" }, "geometry": { "type": "Point", "coordinates": [ -77.145512, -11.837246 ] } },
{ "type": "Feature", "properties": { "NOMBRE_MERCADO": "ASOCIACION DE MICROCOMERCIANTES 13 DE MAYO                                                          ", "aforo": 600.0, "aforo_scaled": 10.011520276486635, "latitude": -11.831709, "longitude": -77.165757, "distrito": "Ventanilla" }, "geometry": { "type": "Point", "coordinates": [ -77.165757, -11.831709 ] } },
{ "type": "Feature", "properties": { "NOMBRE_MERCADO": "MERCADO EL SALVADOR                                                                                 ", "aforo": 600.0, "aforo_scaled": 10.011520276486635, "latitude": -11.837707, "longitude": -77.119498, "distrito": "Ventanilla" }, "geometry": { "type": "Point", "coordinates": [ -77.119498, -11.837707 ] } },
{ "type": "Feature", "properties": { "NOMBRE_MERCADO": "ROCHI VENEGAS                                                                                       ", "aforo": 1200.0, "aforo_scaled": 10.023520564493548, "latitude": -11.84812, "longitude": -77.12631, "distrito": "Ventanilla" }, "geometry": { "type": "Point", "coordinates": [ -77.12631, -11.84812 ] } },
{ "type": "Feature", "properties": { "NOMBRE_MERCADO": "SAN PEDRO                                                                                           ", "aforo": 1600.0, "aforo_scaled": 10.031520756498155, "latitude": -11.848062, "longitude": -77.151421, "distrito": "Ventanilla" }, "geometry": { "type": "Point", "coordinates": [ -77.151421, -11.848062 ] } },
{ "type": "Feature", "properties": { "NOMBRE_MERCADO": "MEGAMETRO                                                                                           ", "aforo": 2000.0, "aforo_scaled": 10.039520948502764, "latitude": -11.882276, "longitude": -77.12611, "distrito": "Ventanilla" }, "geometry": { "type": "Point", "coordinates": [ -77.12611, -11.882276 ] } },
{ "type": "Feature", "properties": { "NOMBRE_MERCADO": "EL TREBOL                                                                                           ", "aforo": 600.0, "aforo_scaled": 10.011520276486635, "latitude": -11.847819, "longitude": -77.133653, "distrito": "Ventanilla" }, "geometry": { "type": "Point", "coordinates": [ -77.133653, -11.847819 ] } },
{ "type": "Feature", "properties": { "NOMBRE_MERCADO": "EL AYLLU                                                                                            ", "aforo": 7000.0, "aforo_scaled": 10.139523348560365, "latitude": -11.843967, "longitude": -77.154185, "distrito": "Ventanilla" }, "geometry": { "type": "Point", "coordinates": [ -77.154185, -11.843967 ] } },
{ "type": "Feature", "properties": { "NOMBRE_MERCADO": "MERCADO SEÑOR DE LOS MILAGROS                                                                       ", "aforo": 2300.0, "aforo_scaled": 10.04552109250622, "latitude": -11.833818, "longitude": -77.128692, "distrito": "Ventanilla" }, "geometry": { "type": "Point", "coordinates": [ -77.128692, -11.833818 ] } },
{ "type": "Feature", "properties": { "NOMBRE_MERCADO": "EL NAZARENO                                                                                         ", "aforo": 500.0, "aforo_scaled": 10.009520228485483, "latitude": -11.876892, "longitude": -77.127524, "distrito": "Ventanilla" }, "geometry": { "type": "Point", "coordinates": [ -77.127524, -11.876892 ] } },
{ "type": "Feature", "properties": { "NOMBRE_MERCADO": "MERCADO SANTA ROSA                                                                                  ", "aforo": 1640.0, "aforo_scaled": 10.032320775698617, "latitude": -11.825153, "longitude": -77.132563, "distrito": "Ventanilla" }, "geometry": { "type": "Point", "coordinates": [ -77.132563, -11.825153 ] } },
{ "type": "Feature", "properties": { "NOMBRE_MERCADO": "MERCADO PUEBLO DE PACHACUTEC                                                                        ", "aforo": 1700.0, "aforo_scaled": 10.033520804499307, "latitude": -11.828893, "longitude": -77.146713, "distrito": "Ventanilla" }, "geometry": { "type": "Point", "coordinates": [ -77.146713, -11.828893 ] } },
{ "type": "Feature", "properties": { "NOMBRE_MERCADO": "SAN CARLOS                                                                                          ", "aforo": 700.0, "aforo_scaled": 10.013520324487788, "latitude": -11.843795, "longitude": -77.142658, "distrito": "Ventanilla" }, "geometry": { "type": "Point", "coordinates": [ -77.142658, -11.843795 ] } },
{ "type": "Feature", "properties": { "NOMBRE_MERCADO": "4 DE FEBRERO                                                                                        ", "aforo": 2592.0, "aforo_scaled": 10.051361232669585, "latitude": -11.832789, "longitude": -77.149384, "distrito": "Ventanilla" }, "geometry": { "type": "Point", "coordinates": [ -77.149384, -11.832789 ] } },
{ "type": "Feature", "properties": { "NOMBRE_MERCADO": "EL PESQUERO 3                                                                                       ", "aforo": 6000.0, "aforo_scaled": 10.119522868548845, "latitude": -11.838766, "longitude": -77.155403, "distrito": "Ventanilla" }, "geometry": { "type": "Point", "coordinates": [ -77.155403, -11.838766 ] } },
{ "type": "Feature", "properties": { "NOMBRE_MERCADO": "MERCADO 3 DE FEBRERO                                                                                ", "aforo": 5000.0, "aforo_scaled": 10.099522388537325, "latitude": -11.831399, "longitude": -77.159998, "distrito": "Ventanilla" }, "geometry": { "type": "Point", "coordinates": [ -77.159998, -11.831399 ] } },
{ "type": "Feature", "properties": { "NOMBRE_MERCADO": "MERCADO NUEVA GENERACION                                                                            ", "aforo": 600.0, "aforo_scaled": 10.011520276486635, "latitude": -11.828204, "longitude": -77.157353, "distrito": "Ventanilla" }, "geometry": { "type": "Point", "coordinates": [ -77.157353, -11.828204 ] } },
{ "type": "Feature", "properties": { "NOMBRE_MERCADO": "MERCADO MODELO NRO 1 DE MARIA JESUS ESPINOZA                                                        ", "aforo": 840.0, "aforo_scaled": 10.016320391689401, "latitude": -11.840494, "longitude": -77.127025, "distrito": "Ventanilla" }, "geometry": { "type": "Point", "coordinates": [ -77.127025, -11.840494 ] } },
{ "type": "Feature", "properties": { "NOMBRE_MERCADO": "HIJOS DE GRAU                                                                                       ", "aforo": 2000.0, "aforo_scaled": 10.039520948502764, "latitude": -11.885523, "longitude": -77.133113, "distrito": "Ventanilla" }, "geometry": { "type": "Point", "coordinates": [ -77.133113, -11.885523 ] } },
{ "type": "Feature", "properties": { "NOMBRE_MERCADO": "MERCADO CORAZON DE VENTANILLA                                                                       ", "aforo": 814.0, "aforo_scaled": 10.0158003792091, "latitude": -11.876003, "longitude": -77.128057, "distrito": "Ventanilla" }, "geometry": { "type": "Point", "coordinates": [ -77.128057, -11.876003 ] } },
{ "type": "Feature", "properties": { "NOMBRE_MERCADO": "MERCADO HATUN INCA                                                                                  ", "aforo": 8000.0, "aforo_scaled": 10.159523828571885, "latitude": -11.829947, "longitude": -77.155515, "distrito": "Ventanilla" }, "geometry": { "type": "Point", "coordinates": [ -77.155515, -11.829947 ] } },
{ "type": "Feature", "properties": { "NOMBRE_MERCADO": "VILLA PACHACUTEC                                                                                    ", "aforo": 5000.0, "aforo_scaled": 10.099522388537325, "latitude": -11.832315, "longitude": -77.144624, "distrito": "Ventanilla" }, "geometry": { "type": "Point", "coordinates": [ -77.144624, -11.832315 ] } },
{ "type": "Feature", "properties": { "NOMBRE_MERCADO": "MERCADO UNIFICADOS                                                                                  ", "aforo": 6000.0, "aforo_scaled": 10.119522868548845, "latitude": -11.834079, "longitude": -77.162068, "distrito": "Ventanilla" }, "geometry": { "type": "Point", "coordinates": [ -77.162068, -11.834079 ] } },
{ "type": "Feature", "properties": { "NOMBRE_MERCADO": "MERCADO 12 DE DICIEMBRE                                                                             ", "aforo": 1600.0, "aforo_scaled": 10.031520756498155, "latitude": -11.887396, "longitude": -77.125371, "distrito": "Ventanilla" }, "geometry": { "type": "Point", "coordinates": [ -77.125371, -11.887396 ] } },
{ "type": "Feature", "properties": { "NOMBRE_MERCADO": "MERCADO EL PROGRESO                                                                                 ", "aforo": 500.0, "aforo_scaled": 10.009520228485483, "latitude": -11.831149, "longitude": -77.137745, "distrito": "Ventanilla" }, "geometry": { "type": "Point", "coordinates": [ -77.137745, -11.831149 ] } },